property,postcode,stroke_team,short_code,ssnap_name,lsoa_code,region,region_code,region_type,country,icb,icb_code,isdn,use_ivt,use_mt,use_msu,transfer_unit_postcode,selected,time_ambulance_called,time_ambulance_called,time_ambulance_arrival,time_ambulance_arrival,time_ambulance_leaves_scene,time_ambulance_leaves_scene,time_admitting_unit_arrival,time_admitting_unit_arrival,time_needle,time_needle,time_transfer_unit_arrival,time_transfer_unit_arrival,time_puncture,time_puncture,mRS shift,mRS shift,utility_shift,utility_shift,mRS 0-2,mRS 0-2,use_ivt,use_mt,use_msu,transfer_unit_postcode,selected,time_ambulance_called,time_ambulance_called,time_ambulance_arrival,time_ambulance_arrival,time_ambulance_leaves_scene,time_ambulance_leaves_scene,time_admitting_unit_arrival,time_admitting_unit_arrival,time_needle,time_needle,time_transfer_unit_arrival,time_transfer_unit_arrival,time_puncture,time_puncture,mRS shift,mRS shift,utility_shift,utility_shift,mRS 0-2,mRS 0-2,utility_shift,utility_shift,mRS shift,mRS shift,mRS 0-2,mRS 0-2,periphery_unit,periphery_unit,BNG_E,BNG_N,Latitude,Longitude,geometry,use_ivt,use_mt,use_msu,selected,time_ambulance_called,time_ambulance_called,time_ambulance_arrival,time_ambulance_arrival,time_ambulance_leaves_scene,time_ambulance_leaves_scene,time_admitting_unit_arrival,time_admitting_unit_arrival,time_needle,time_needle,time_transfer_unit_arrival,time_transfer_unit_arrival,time_puncture,time_puncture,periphery_unit
scenario,any,any,any,any,any,any,any,any,any,any,any,any,drip-and-ship,drip-and-ship,drip-and-ship,drip-and-ship,drip-and-ship,drip-and-ship,drip-and-ship,drip-and-ship,drip-and-ship,drip-and-ship,drip-and-ship,drip-and-ship,drip-and-ship,drip-and-ship,drip-and-ship,drip-and-ship,drip-and-ship,drip-and-ship,drip-and-ship,drip-and-ship,drip-and-ship,drip-and-ship,drip-and-ship,drip-and-ship,drip-and-ship,mothership,mothership,mothership,mothership,mothership,mothership,mothership,mothership,mothership,mothership,mothership,mothership,mothership,mothership,mothership,mothership,mothership,mothership,mothership,mothership,mothership,mothership,mothership,mothership,mothership,diff_drip-and-ship_minus_mothership,diff_drip-and-ship_minus_mothership,diff_drip-and-ship_minus_mothership,diff_drip-and-ship_minus_mothership,diff_drip-and-ship_minus_mothership,diff_drip-and-ship_minus_mothership,drip-and-ship,mothership,any,any,any,any,any,diff_drip-and-ship_minus_mothership,diff_drip-and-ship_minus_mothership,diff_drip-and-ship_minus_mothership,diff_drip-and-ship_minus_mothership,diff_drip-and-ship_minus_mothership,diff_drip-and-ship_minus_mothership,diff_drip-and-ship_minus_mothership,diff_drip-and-ship_minus_mothership,diff_drip-and-ship_minus_mothership,diff_drip-and-ship_minus_mothership,diff_drip-and-ship_minus_mothership,diff_drip-and-ship_minus_mothership,diff_drip-and-ship_minus_mothership,diff_drip-and-ship_minus_mothership,diff_drip-and-ship_minus_mothership,diff_drip-and-ship_minus_mothership,diff_drip-and-ship_minus_mothership,diff_drip-and-ship_minus_mothership,diff_drip-and-ship_minus_mothership
subtype,,,,,,,,,,,,,,,,,,mean,std,mean,std,mean,std,mean,std,mean,std,mean,std,mean,std,mean,std,mean,std,mean,std,,,,,,mean,std,mean,std,mean,std,mean,std,mean,std,mean,std,mean,std,mean,std,mean,std,mean,std,mean,std,mean,std,mean,std,,,,,,,,,,,,mean,std,mean,std,mean,std,mean,std,mean,std,mean,std,mean,std,
id,,,,,,,,,,,,,,,,,,,,,,,,,,,,,,,,,,,,,,,,,,,,,,,,,,,,,,,,,,,,,,,,,,,,,,,,,,,,,,,,,,,,,,,,,,,,,,
125,SY231ER,Bronglais Hospital (Aberystwyth),AB,Bronglais Hospital,W01000512,Hywel Dda University Health Board,W11000025,LHB,Wales,,,,1,0,0,nearest,0,,,,,,,,,,,,,,,,,,,,,0,0,0,nearest,0,,,,,,,,,,,,,,,,,,,,,,,,,,,0,0,259208.0,281805.0,52.416068,-4.0715775,POINT (259208 281805),1,0,0,0,,,,,,,,,,,,,,,0
19,CB20QQ,"Addenbrooke's Hospital, Cambridge",AD,Addenbrooke's Hospital,E01017995,NHS Cambridgeshire and Peterborough ICB - 06H,E38000260,SICBL,England,NHS Cambridgeshire and Peterborough Integrated Care Board,E54000056,East of England (South),1,1,1,nearest,0,,,,,,,,,,,,,,,,,,,,,1,1,1,nearest,0,,,,,,,,,,,,,,,,,,,,,,,,,,,0,0,546375.0,254988.0,52.173741,0.13911444,POINT (546375 254988),1,1,1,0,,,,,,,,,,,,,,,0
60,L97AL,"University Hospital Aintree, Liverpool",AI,University Hospital Aintree,E01006654,NHS Cheshire and Merseyside ICB - 99A,E38000101,SICBL,England,NHS Cheshire and Merseyside Integrated Care Board,E54000008,Cheshire and Merseyside,1,1,1,nearest,0,,,,,,,,,,,,,,,,,,,,,1,1,1,nearest,0,,,,,,,,,,,,,,,,,,,,,,,,,,,0,0,338020.0,397205.0,53.467918,-2.9351308,POINT (338020 397205),1,1,1,0,,,,,,,,,,,,,,,0
24,CH495PE,"Arrowe Park Hospital, Wirral",AR,Wirral Arrowe Park Hospital,E01007251,NHS Cheshire and Merseyside ICB - 12F,E38000208,SICBL,England,NHS Cheshire and Merseyside Integrated Care Board,E54000008,Cheshire and Merseyside,1,0,0,nearest,0,,,,,,,,,,,,,,,,,,,,,0,0,0,nearest,0,,,,,,,,,,,,,,,,,,,,,,,,,,,0,0,327212.0,386557.0,53.370841,-3.0954486,POINT (327212 386557),1,0,0,0,,,,,,,,,,,,,,,0
3,BA13NG,Royal United Hospital Bath,BA,Royal United Hospital Bath,E01014428,"NHS Bath and North East Somerset, Swindon and Wiltshire ICB - 92G",E38000231,SICBL,England,"NHS Bath and North East Somerset, Swindon and Wiltshire Integrated Care Board",E54000040,"Gloucester, BSW, BNSSG and Somerset",1,0,0,nearest,1,30.0,0.0,60.0,0.0,80.0,0.0,104.47966573816156,8.522413072264548,134.9946261682243,8.41596253478202,198.27631578947367,8.430909206325964,258.2763157894737,8.430909206325962,-0.5330683316384622,0.0245437048813528,0.1018179818982733,0.0081484337311041,0.5775299379218859,0.1452989801215155,0,0,0,nearest,0,,,,,,,,,,,,,,,,,,,,,0.1018179818982733,0.0081484337311041,-0.5330683316384622,0.0245437048813528,0.5775299379218859,0.1452989801215155,1,0,372922.0,166042.0,51.392764,-2.3905661,POINT (372922 166042),1,0,0,1,30.0,0.0,60.0,0.0,80.0,0.0,104.47966573816156,8.522413072264548,134.9946261682243,8.41596253478202,198.27631578947367,8.430909206325964,258.2763157894737,8.430909206325962,1
6,BD96RJ,Bradford Royal Infirmary,BD,Bradford and Airedale SU,E01010810,NHS West Yorkshire ICB - 36J,E38000232,SICBL,England,NHS West Yorkshire Integrated Care Board,E54000054,West Yorkshire and Harrogate,1,0,0,nearest,0,,,,,,,,,,,,,,,,,,,,,0,0,0,nearest,0,,,,,,,,,,,,,,,,,,,,,,,,,,,0,0,413606.0,434418.0,53.805882,-1.7948794,POINT (413606 434418),1,0,0,0,,,,,,,,,,,,,,,0
73,MK429DJ,Bedford Hospital,BE,Bedford Hospital,E01017473,"NHS Bedfordshire, Luton and Milton Keynes ICB - M1J4Y",E38000249,SICBL,England,"NHS Bedfordshire, Luton and Milton Keynes Integrated Care Board",E54000024,East of England (South),0,0,0,nearest,0,,,,,,,,,,,,,,,,,,,,,0,0,0,nearest,0,,,,,,,,,,,,,,,,,,,,,,,,,,,0,0,504712.0,248939.0,52.128848,-0.47173007,POINT (504712 248939),0,0,0,0,,,,,,,,,,,,,,,0
25,CM17ET,"Broomfield Hospital, Chelmsford",BF,Broomfield Hospital,E01021542,NHS Mid and South Essex ICB - 06Q,E38000106,SICBL,England,NHS Mid and South Essex Integrated Care Board,E54000026,East of England (South),1,0,0,nearest,0,,,,,,,,,,,,,,,,,,,,,0,0,0,nearest,0,,,,,,,,,,,,,,,,,,,,,,,,,,,0,0,570191.0,211310.0,51.774585,0.46542433,POINT (570191 211310),1,0,0,0,,,,,,,,,,,,,,,0
12,BN25BE,"Royal Sussex County Hospital, Brighton",BG,Royal Sussex County Hospital,E01016862,NHS Sussex ICB - 09D,E38000021,SICBL,England,NHS Sussex Integrated Care Board,E54000053,Sussex,1,1,1,nearest,0,,,,,,,,,,,,,,,,,,,,,1,1,1,nearest,0,,,,,,,,,,,,,,,,,,,,,,,,,,,0,0,532654.0,103901.0,50.819468,-0.11817668,POINT (532654 103901),1,1,1,0,,,,,,,,,,,,,,,0
44,FY38NR,Blackpool Teaching Hospitals NHS Foundation Trust,BL,Blackpool Victoria Hospital,E01012722,NHS Lancashire and South Cumbria ICB - 00R,E38000015,SICBL,England,NHS Lancashire and South Cumbria Integrated Care Board,E54000048,Lancashire and South Cumbria,1,0,0,nearest,0,,,,,,,,,,,,,,,,,,,,,0,0,0,nearest,0,,,,,,,,,,,,,,,,,,,,,,,,,,,0,0,333195.0,436523.0,53.820669,-3.0162645,POINT (333195 436523),1,0,0,0,,,,,,,,,,,,,,,0
2,B95SS,Birmingham Heartlands Hospital,BM,Birmingham Heartlands Hospital,E01009341,NHS Birmingham and Solihull ICB - 15E,E38000258,SICBL,England,NHS Birmingham and Solihull Integrated Care Board,E54000055,West Midlands,0,0,0,nearest,0,,,,,,,,,,,,,,,,,,,,,0,0,0,nearest,0,,,,,,,,,,,,,,,,,,,,,,,,,,,0,0,411645.0,286935.0,52.480218,-1.8299656,POINT (411645 286935),0,0,0,0,,,,,,,,,,,,,,,0
106,S752EP,Barnsley Hospital,BN,Barnsley Hospital,E01007446,NHS South Yorkshire ICB - 02P,E38000006,SICBL,England,NHS South Yorkshire Integrated Care Board,E54000061,South Yorkshire,0,0,0,nearest,0,,,,,,,,,,,,,,,,,,,,,0,0,0,nearest,0,,,,,,,,,,,,,,,,,,,,,,,,,,,0,0,433247.0,406971.0,53.558314,-1.4995781,POINT (433247 406971),0,0,0,0,,,,,,,,,,,,,,,0
8,BH77DW,Royal Bournemouth Hospital,BO,University Hospitals Dorset Stroke Service,E01015319,NHS Dorset ICB - 11J,E38000045,SICBL,England,NHS Dorset Integrated Care Board,E54000041,Wessex,1,0,0,nearest,0,,,,,,,,,,,,,,,,,,,,,0,0,0,nearest,0,,,,,,,,,,,,,,,,,,,,,,,,,,,0,0,412760.0,94224.0,50.747482,-1.8205054,POINT (412760 94224),1,0,0,0,,,,,,,,,,,,,,,0
43,EX314JB,"North Devon District Hospital, Barnstaple",BP,North Devon District Hospital,E01020134,NHS Devon ICB - 15N,E38000230,SICBL,England,NHS Devon Integrated Care Board,E54000037,"Devon, Cornwall and Isles of Scilly",1,0,0,nearest,1,30.0,0.0,60.0,0.0,80.0,0.0,105.05986547085202,11.735026949690026,135.0249042145594,11.634532175085418,255.35102040816324,11.781378324996297,315.35102040816327,11.78137832499628,-0.4668641155106516,0.0804868376806677,0.0893929947069307,0.0107398920839003,0.5579449700155061,0.1645236549474652,0,0,0,nearest,0,,,,,,,,,,,,,,,,,,,,,0.0893929947069307,0.0107398920839003,-0.4668641155106516,0.0804868376806677,0.5579449700155061,0.1645236549474652,1,0,256457.0,134545.0,51.092201,-4.0511326,POINT (256457 134545),1,0,0,1,30.0,0.0,60.0,0.0,80.0,0.0,105.05986547085202,11.735026949690026,135.0249042145594,11.634532175085418,255.35102040816324,11.781378324996297,315.35102040816327,11.78137832499628,1
16,BS28HW,Bristol Royal Infirmary,BR,University Hospitals Bristol Inpatient Team,E01014542,"NHS Bristol, North Somerset and South Gloucestershire ICB - 15C",E38000222,SICBL,England,"NHS Bristol, North Somerset and South Gloucestershire Integrated Care Board",E54000039,"Gloucester, BSW, BNSSG and Somerset",0,0,0,nearest,0,,,,,,,,,,,,,,,,,,,,,0,0,0,nearest,0,,,,,,,,,,,,,,,,,,,,,,,,,,,0,0,358668.0,173492.0,51.458886,-2.596293,POINT (358668 173492),0,0,0,0,,,,,,,,,,,,,,,0
121,SS165NL,Basildon University Hospital,BS,Basildon University Hospital,E01021297,NHS Mid and South Essex ICB - 99E,E38000007,SICBL,England,NHS Mid and South Essex Integrated Care Board,E54000026,East of England (South),1,0,0,nearest,0,,,,,,,,,,,,,,,,,,,,,0,0,0,nearest,0,,,,,,,,,,,,,,,,,,,,,,,,,,,0,0,569975.0,187157.0,51.557686,0.45055726,POINT (569975 187157),1,0,0,0,,,,,,,,,,,,,,,0
20,CF144XW,University Hospital of Wales (Cardiff),CA,University Hospital of Wales,W01001770,Cardiff and Vale University Health Board,W11000029,LHB,Wales,,,,1,1,1,nearest,0,,,,,,,,,,,,,,,,,,,,,1,1,1,nearest,0,,,,,,,,,,,,,,,,,,,,,,,,,,,0,0,317551.0,179319.0,51.506764,-3.1893604,POINT (317551 179319),1,1,1,0,,,,,,,,,,,,,,,0
124,SW66SX,"Charing Cross Hospital, London",CC,Charing Cross Hospital HASU,E01001906,NHS North West London ICB - W2U3Z,E38000256,SICBL,England,NHS North West London Integrated Care Board,E54000027,London,1,1,1,nearest,0,,,,,,,,,,,,,,,,,,,,,1,1,1,nearest,0,,,,,,,,,,,,,,,,,,,,,,,,,,,0,0,524227.0,176487.0,51.473716,-0.21272176,POINT (524227 176487),1,1,1,0,,,,,,,,,,,,,,,0
104,S445BL,Chesterfield Royal Hospital,CF,Chesterfield Royal,E01019585,NHS Derby and Derbyshire ICB - 15M,E38000261,SICBL,England,NHS Derby and Derbyshire Integrated Care Board,E54000058,East Midlands,1,0,0,nearest,0,,,,,,,,,,,,,,,,,,,,,0,0,0,nearest,0,,,,,,,,,,,,,,,,,,,,,,,,,,,0,0,440139.0,371189.0,53.236223,-1.4000812,POINT (440139 371189),1,0,0,0,,,,,,,,,,,,,,,0
23,CH21UL,"Countess of Chester Hospital, Chester",CH,Countess of Chester Hospital,E01018377,NHS Cheshire and Merseyside ICB - 27D,E38000233,SICBL,England,NHS Cheshire and Merseyside Integrated Care Board,E54000008,Cheshire and Merseyside,1,0,0,nearest,0,,,,,,,,,,,,,,,,,,,,,0,0,0,nearest,0,,,,,,,,,,,,,,,,,,,,,,,,,,,0,0,340058.0,368678.0,53.211767,-2.8990244,POINT (340058 368678),1,0,0,0,,,,,,,,,,,,,,,0
53,HX30PW,"Calderdale Royal Hospital, Halifax",CL,Calderdale Royal Hospital,E01010972,NHS West Yorkshire ICB - 02T,E38000025,SICBL,England,NHS West Yorkshire Integrated Care Board,E54000054,West Yorkshire and Harrogate,1,0,0,nearest,0,,,,,,,,,,,,,,,,,,,,,0,0,0,nearest,0,,,,,,,,,,,,,,,,,,,,,,,,,,,0,0,409519.0,423218.0,53.705306,-1.8572797,POINT (409519 423218),1,0,0,0,,,,,,,,,,,,,,,0
26,CO45JL,Colchester General Hospital,CO,Colchester General Hospital,E01021682,NHS Suffolk and North East Essex ICB - 06T,E38000117,SICBL,England,NHS Suffolk and North East Essex Integrated Care Board,E54000023,East of England (North),1,0,0,nearest,0,,,,,,,,,,,,,,,,,,,,,0,0,0,nearest,0,,,,,,,,,,,,,,,,,,,,,,,,,,,0,0,599526.0,227427.0,51.909629,0.89936594,POINT (599526 227427),1,0,0,0,,,,,,,,,,,,,,,0
17,CA27HY,"Cumberland Infirmary, Carlisle",CU,Cumberland Infirmary,E01019205,NHS North East and North Cumbria ICB - 01H,E38000215,SICBL,England,NHS North East and North Cumbria Integrated Care Board,E54000050,North East and Cumbria,1,0,0,nearest,0,,,,,,,,,,,,,,,,,,,,,0,0,0,nearest,0,,,,,,,,,,,,,,,,,,,,,,,,,,,0,0,338830.0,556086.0,54.895745,-2.9552949,POINT (338830 556086),1,0,0,0,,,,,,,,,,,,,,,0
30,CV22DX,"University Hospital, Coventry",CV,University Hospital Coventry,E01009580,NHS Coventry and Warwickshire ICB - B2M3M,E38000251,SICBL,England,NHS Coventry and Warwickshire Integrated Care Board,E54000018,West Midlands,1,1,1,nearest,0,,,,,,,,,,,,,,,,,,,,,1,1,1,nearest,0,,,,,,,,,,,,,,,,,,,,,,,,,,,0,0,437942.0,280527.0,52.421424,-1.4435031,POINT (437942 280527),1,1,1,0,,,,,,,,,,,,,,,0
33,DA28DA,"Darent Valley Hospital, Dartford",DA,Darent Valley Hospital,E01024133,NHS Kent and Medway ICB - 91Q,E38000237,SICBL,England,NHS Kent and Medway Integrated Care Board,E54000032,Kent and Medway,1,0,0,nearest,0,,,,,,,,,,,,,,,,,,,,,0,0,0,nearest,0,,,,,,,,,,,,,,,,,,,,,,,,,,,0,0,557060.0,173092.0,51.435061,0.25816101,POINT (557060 173092),1,0,0,0,,,,,,,,,,,,,,,0
38,DN25LT,Doncaster Royal Infirmary,DC,Doncaster Royal Infirmary,E01007567,NHS South Yorkshire ICB - 02X,E38000044,SICBL,England,NHS South Yorkshire Integrated Care Board,E54000061,South Yorkshire,1,0,0,nearest,0,,,,,,,,,,,,,,,,,,,,,0,0,0,nearest,0,,,,,,,,,,,,,,,,,,,,,,,,,,,0,0,459141.0,404156.0,53.530742,-1.1092567,POINT (459141 404156),1,0,0,0,,,,,,,,,,,,,,,0
35,DE223NE,Royal Derby Hospital,DE,Royal Derby Hospital,E01013542,NHS Derby and Derbyshire ICB - 15M,E38000261,SICBL,England,NHS Derby and Derbyshire Integrated Care Board,E54000058,East Midlands,1,0,0,nearest,0,,,,,,,,,,,,,,,,,,,,,0,0,0,nearest,0,,,,,,,,,,,,,,,,,,,,,,,,,,,0,0,432826.0,335014.0,52.911556,-1.5133206,POINT (432826 335014),1,0,0,0,,,,,,,,,,,,,,,0
93,PL68DH,"Derriford Hospital, Plymouth",DF,Derriford Hospital,E01015092,NHS Devon ICB - 15N,E38000230,SICBL,England,NHS Devon Integrated Care Board,E54000037,"Devon, Cornwall and Isles of Scilly",1,1,1,nearest,1,30.0,0.0,60.0,0.0,80.0,0.0,102.36822695035464,11.544312371477066,132.41907090464548,11.385879977417474,,,131.8584,10.670241887393358,-0.663277676703024,0.202839472402514,0.125374742766692,0.0423809742681444,0.6187497586605876,0.1019980698175678,1,1,1,nearest,1,30.0,0.0,60.0,0.0,80.0,0.0,138.6757863695937,25.20638689991589,169.1714367816092,25.30624561130407,,,168.24300884955753,24.7856393192245,-0.5763042699908146,0.1964209555994495,0.1101600607473982,0.0407071970332336,0.5961566407674822,0.1083463178269102,0.125374742766692,0.0423809742681444,-0.5763042699908146,0.202839472402514,0.6187497586605876,0.1083463178269102,1,1,249930.0,59564.0,50.41672,-4.1136845,POINT (249930 59564),1,1,1,1,30.0,0.0,60.0,0.0,80.0,0.0,138.6757863695937,25.20638689991589,169.1714367816092,25.30624561130407,,,168.24300884955753,24.7856393192245,1
39,DT12JY,"Dorset County Hospital, Dorchester",DR,Dorset County Hospital,E01032643,NHS Dorset ICB - 11J,E38000045,SICBL,England,NHS Dorset Integrated Care Board,E54000041,Wessex,1,0,0,nearest,0,,,,,,,,,,,,,,,,,,,,,0,0,0,nearest,0,,,,,,,,,,,,,,,,,,,,,,,,,,,1,0,368528.0,90521.0,50.713461,-2.4471253,POINT (368528 90521),1,0,0,0,,,,,,,,,,,,,,,1
11,BN212UD,Eastbourne District General Hospital,EB,Eastbourne District General Hospital,E01020948,NHS Sussex ICB - 97R,E38000235,SICBL,England,NHS Sussex Integrated Care Board,E54000053,Sussex,1,0,0,nearest,0,,,,,,,,,,,,,,,,,,,,,0,0,0,nearest,0,,,,,,,,,,,,,,,,,,,,,,,,,,,0,0,560184.0,101058.0,50.786969,0.27110748,POINT (560184 101058),1,0,0,0,,,,,,,,,,,,,,,0
5,BB23HH,East Lancashire Hospitals NHS Trust,EL,Royal Blackburn Hospital,E01012632,NHS Lancashire and South Cumbria ICB - 00Q,E38000014,SICBL,England,NHS Lancashire and South Cumbria Integrated Care Board,E54000048,Lancashire and South Cumbria,1,0,0,nearest,0,,,,,,,,,,,,,,,,,,,,,0,0,0,nearest,0,,,,,,,,,,,,,,,,,,,,,,,,,,,0,0,369305.0,426794.0,53.736622,-2.4668058,POINT (369305 426794),1,0,0,0,,,,,,,,,,,,,,,0
57,KT187EG,Epsom Hospital,EP,Epsom Hospital,E01030419,NHS Surrey Heartlands ICB - 92A,E38000246,SICBL,England,NHS Surrey Heartlands Integrated Care Board,E54000052,Frimley ICS,1,0,0,nearest,0,,,,,,,,,,,,,,,,,,,,,0,0,0,nearest,0,,,,,,,,,,,,,,,,,,,,,,,,,,,0,0,520402.0,159851.0,51.325026,-0.27340744,POINT (520402 159851),1,0,0,0,,,,,,,,,,,,,,,0
100,RH15RH,"East Surrey Hospital, Redhill",ES,East Surrey Hospital,E01030572,NHS Surrey Heartlands ICB - 92A,E38000246,SICBL,England,NHS Surrey Heartlands Integrated Care Board,E54000052,Frimley ICS,1,0,0,nearest,0,,,,,,,,,,,,,,,,,,,,,0,0,0,nearest,0,,,,,,,,,,,,,,,,,,,,,,,,,,,0,0,528510.0,148207.0,51.218607,-0.16128808,POINT (528510 148207),1,0,0,0,,,,,,,,,,,,,,,0
42,EX25DW,Royal Devon and Exeter Hospital,EX,Royal Devon and Exeter Hospital,E01020013,NHS Devon ICB - 15N,E38000230,SICBL,England,NHS Devon Integrated Care Board,E54000037,"Devon, Cornwall and Isles of Scilly",1,0,0,nearest,1,30.0,0.0,60.0,0.0,80.0,0.0,102.52090301003344,9.60933283715195,132.66773255813953,9.625817421106438,222.35504587155964,10.194392850961172,282.35504587155964,10.194392850961163,-0.5121228295591275,0.0365827566231344,0.0973722152035241,0.0045074345665814,0.5850410386586682,0.1489364987419161,0,0,0,nearest,0,,,,,,,,,,,,,,,,,,,,,0.0973722152035241,0.0045074345665814,-0.5121228295591275,0.0365827566231344,0.5850410386586682,0.1489364987419161,1,0,293730.0,91870.0,50.716712,-3.5066801,POINT (293730 91870),1,0,0,1,30.0,0.0,60.0,0.0,80.0,0.0,102.52090301003344,9.60933283715195,132.66773255813953,9.625817421106438,222.35504587155964,10.194392850961172,282.35504587155964,10.194392850961163,1
61,LA144LF,University Hospitals of Morecambe Bay NHS Foundation Trust,FG,Furness General Hospital,E01019155,NHS Lancashire and South Cumbria ICB - 01K,E38000228,SICBL,England,NHS Lancashire and South Cumbria Integrated Care Board,E54000048,Lancashire and South Cumbria,1,0,0,nearest,0,,,,,,,,,,,,,,,,,,,,,0,0,0,nearest,0,,,,,,,,,,,,,,,,,,,,,,,,,,,0,0,321180.0,471847.0,54.136395,-3.2078839,POINT (321180 471847),1,0,0,0,,,,,,,,,,,,,,,0
46,GU167UJ,Frimley Park Hospital,FR,Frimley Park Hospital,E01030768,NHS Frimley ICB - D4U1Y,E38000252,SICBL,England,NHS Frimley Integrated Care Board,E54000034,Frimley ICS,1,0,0,nearest,0,,,,,,,,,,,,,,,,,,,,,0,0,0,nearest,0,,,,,,,,,,,,,,,,,,,,,,,,,,,0,0,487794.0,158592.0,51.31967,-0.74155505,POINT (487794 158592),1,0,0,0,,,,,,,,,,,,,,,0
65,LL185UJ,Glan Clwyd District General Hospital (Rhyl),GC,Glan Clwyd District General Hospital,W01000191,Betsi Cadwaladr University Health Board,W11000023,LHB,Wales,,,,1,0,0,nearest,0,,,,,,,,,,,,,,,,,,,,,0,0,0,nearest,0,,,,,,,,,,,,,,,,,,,,,,,,,,,0,0,300309.0,376019.0,53.271755,-3.4963452,POINT (300309 376019),1,0,0,0,,,,,,,,,,,,,,,0
29,CV107DJ,"George Eliot Hospital, Nuneaton",GE,George Eliot Hospital,E01031049,NHS Coventry and Warwickshire ICB - B2M3M,E38000251,SICBL,England,NHS Coventry and Warwickshire Integrated Care Board,E54000018,West Midlands,0,0,0,nearest,0,,,,,,,,,,,,,,,,,,,,,0,0,0,nearest,0,,,,,,,,,,,,,,,,,,,,,,,,,,,0,0,435718.0,290586.0,52.511999,-1.4751307,POINT (435718 290586),0,0,0,0,,,,,,,,,,,,,,,0
45,GL13NN,"Gloucestershire Royal Hospital, Gloucester",GL,Gloucestershire Royal Hospital,E01022311,NHS Gloucestershire ICB - 11M,E38000062,SICBL,England,NHS Gloucestershire Integrated Care Board,E54000043,"Gloucester, BSW, BNSSG and Somerset",1,0,0,nearest,1,30.0,0.0,60.0,0.0,80.0,0.0,101.28008356545962,8.182629933523225,131.39429280397022,8.29971480560332,207.7316176470588,8.484763705702841,267.73161764705884,8.48476370570284,-0.5279472016026046,0.0224282060762209,0.1005736570401391,0.0053566297605145,0.5818636771581582,0.1471486590680248,0,0,0,nearest,0,,,,,,,,,,,,,,,,,,,,,0.1005736570401391,0.0053566297605145,-0.5279472016026046,0.0224282060762209,0.5818636771581582,0.1471486590680248,1,0,383992.0,218638.0,51.866088,-2.2338867,POINT (383992 218638),1,0,0,1,30.0,0.0,60.0,0.0,80.0,0.0,101.28008356545962,8.182629933523225,131.39429280397022,8.29971480560332,207.7316176470588,8.484763705702841,267.73161764705884,8.48476370570284,1
84,NP448YN,Grange University Hospital (Newport),GR,Grange University Hospital,W01001508,Aneurin Bevan University Health Board,W11000028,LHB,Wales,,,,1,0,0,nearest,0,,,,,,,,,,,,,,,,,,,,,0,0,0,nearest,0,,,,,,,,,,,,,,,,,,,,,,,,,,,0,0,331159.0,194636.0,51.646288,-2.9963314,POINT (331159 194636),1,0,0,0,,,,,,,,,,,,,,,0
47,GU27XX,"Royal Surrey County Hospital, Guildford",GU,None (for 72h care),E01030470,NHS Surrey Heartlands ICB - 92A,E38000246,SICBL,England,NHS Surrey Heartlands Integrated Care Board,E54000052,Frimley ICS,0,0,0,nearest,0,,,,,,,,,,,,,,,,,,,,,0,0,0,nearest,0,,,,,,,,,,,,,,,,,,,,,,,,,,,0,0,497304.0,150015.0,51.241025,-0.60746234,POINT (497304 150015),0,0,0,0,,,,,,,,,,,,,,,0
115,SN36BB,"Great Western Hospital, Swindon",GW,Great Western Hospital Swindon,E01015583,"NHS Bath and North East Somerset, Swindon and Wiltshire ICB - 92G",E38000231,SICBL,England,"NHS Bath and North East Somerset, Swindon and Wiltshire Integrated Care Board",E54000040,"Gloucester, BSW, BNSSG and Somerset",1,0,0,nearest,1,30.0,0.0,60.0,0.0,80.0,0.0,104.43137829912024,9.188261721199886,134.5983009708738,9.379725094498715,214.75866666666667,9.655969302806096,274.75866666666667,9.655969302806112,-0.5155076741794649,0.0284212129727051,0.098557213228105,0.0049979112467228,0.5712240110476032,0.1513237764781854,0,0,0,nearest,0,,,,,,,,,,,,,,,,,,,,,0.098557213228105,0.0049979112467228,-0.5155076741794649,0.0284212129727051,0.5712240110476032,0.1513237764781854,1,0,418983.0,182175.0,51.538161,-1.7276925,POINT (418983 182175),1,0,0,1,30.0,0.0,60.0,0.0,80.0,0.0,104.43137829912024,9.188261721199886,134.5983009708738,9.379725094498715,214.75866666666667,9.655969302806096,274.75866666666667,9.655969302806112,1
49,HG27SX,Harrogate District Hospital,HA,Harrogate District Hospital,E01027649,NHS Humber and North Yorkshire ICB - 42D,E38000241,SICBL,England,NHS Humber and North Yorkshire Integrated Care Board,E54000051,Humber Coast and Vale,0,0,0,nearest,0,,,,,,,,,,,,,,,,,,,,,0,0,0,nearest,0,,,,,,,,,,,,,,,,,,,,,,,,,,,0,0,431709.0,455414.0,53.993799,-1.5178329,POINT (431709 455414),0,0,0,0,,,,,,,,,,,,,,,0
51,HR12ER,Hereford County Hospital,HE,Hereford County Hospital,E01014011,NHS Herefordshire and Worcestershire ICB - 18C,E38000236,SICBL,England,NHS Herefordshire and Worcestershire Integrated Care Board,E54000019,West Midlands,1,0,0,nearest,0,,,,,,,,,,,,,,,,,,,,,0,0,0,nearest,0,,,,,,,,,,,,,,,,,,,,,,,,,,,1,0,351722.0,240075.0,52.056942,-2.7055327,POINT (351722 240075),1,0,0,0,,,,,,,,,,,,,,,1
101,RH164EX,"Princess Royal Hospital, Haywards Heath",HH,Princess Royal Hospital Haywards Heath,E01031756,NHS Sussex ICB - 70F,E38000248,SICBL,England,NHS Sussex Integrated Care Board,E54000053,Sussex,0,0,0,nearest,0,,,,,,,,,,,,,,,,,,,,,0,0,0,nearest,0,,,,,,,,,,,,,,,,,,,,,,,,,,,0,0,534069.0,123045.0,50.991198,-0.091075995,POINT (534069 123045),0,0,0,0,,,,,,,,,,,,,,,0
88,OX169AL,"Horton General Hospital, Banbury",HO,None (for 72h care),E01028427,"NHS Buckinghamshire, Oxfordshire and Berkshire West ICB - 10Q",E38000136,SICBL,England,"NHS Buckinghamshire, Oxfordshire and Berkshire West Integrated Care Board",E54000044,Thames Valley,0,0,0,nearest,0,,,,,,,,,,,,,,,,,,,,,0,0,0,nearest,0,,,,,,,,,,,,,,,,,,,,,,,,,,,0,0,445582.0,239667.0,52.053522,-1.3366639,POINT (445582 239667),0,0,0,0,,,,,,,,,,,,,,,0
52,HU32JZ,Hull Royal Infirmary,HU,Hull Royal Infirmary,E01012855,NHS Humber and North Yorkshire ICB - 03F,E38000085,SICBL,England,NHS Humber and North Yorkshire Integrated Care Board,E54000051,Humber Coast and Vale,1,1,1,nearest,0,,,,,,,,,,,,,,,,,,,,,1,1,1,nearest,0,,,,,,,,,,,,,,,,,,,,,,,,,,,0,0,508369.0,428810.0,53.744412,-0.35827125,POINT (508369 428810),1,1,1,0,,,,,,,,,,,,,,,0
102,RM70AG,Havering and Redbridge University Hospitals NHS Trust,HV,Queens Hospital Romford HASU,E01002248,NHS North East London ICB - A3A8R,E38000255,SICBL,England,NHS North East London Integrated Care Board,E54000029,London,1,1,1,nearest,0,,,,,,,,,,,,,,,,,,,,,1,1,1,nearest,0,,,,,,,,,,,,,,,,,,,,,,,,,,,0,0,551110.0,187777.0,51.568622,0.17891397,POINT (551110 187777),1,1,1,0,,,,,,,,,,,,,,,0
55,IP45PD,Ipswich Hospital,IP,Ipswich Hospital,E01029964,NHS Suffolk and North East Essex ICB - 06L,E38000086,SICBL,England,NHS Suffolk and North East Essex Integrated Care Board,E54000023,East of England (North),1,0,0,nearest,0,,,,,,,,,,,,,,,,,,,,,0,0,0,nearest,0,,,,,,,,,,,,,,,,,,,,,,,,,,,0,0,619213.0,245003.0,52.060012,1.1963461,POINT (619213 245003),1,0,0,0,,,,,,,,,,,,,,,0
133,TS43BW,"James Cook University Hospital, Middlesbrough",JC,James Cook University Hospital,E01012018,NHS North East and North Cumbria ICB - 16C,E38000247,SICBL,England,NHS North East and North Cumbria Integrated Care Board,E54000050,North East and Cumbria,1,1,0,nearest,0,,,,,,,,,,,,,,,,,,,,,1,1,0,nearest,0,,,,,,,,,,,,,,,,,,,,,,,,,,,0,0,450919.0,517709.0,54.552075,-1.2142736,POINT (450919 517709),1,1,0,0,,,,,,,,,,,,,,,0
85,NR316LA,"James Paget Hospitals, Great Yarmouth",JP,James Paget Hospital,E01026617,NHS Norfolk and Waveney ICB - 26A,E38000239,SICBL,England,NHS Norfolk and Waveney Integrated Care Board,E54000022,East of England (North),1,0,0,nearest,0,,,,,,,,,,,,,,,,,,,,,0,0,0,nearest,0,,,,,,,,,,,,,,,,,,,,,,,,,,,0,0,652093.0,302477.0,52.561672,1.7179799,POINT (652093 302477),1,0,0,0,,,,,,,,,,,,,,,0
89,OX39DU,"John Radcliffe Hospital, Oxford",JR,John Radcliffe Hospital,E01028534,"NHS Buckinghamshire, Oxfordshire and Berkshire West ICB - 10Q",E38000136,SICBL,England,"NHS Buckinghamshire, Oxfordshire and Berkshire West Integrated Care Board",E54000044,Thames Valley,1,1,1,nearest,0,,,,,,,,,,,,,,,,,,,,,1,1,1,nearest,0,,,,,,,,,,,,,,,,,,,,,,,,,,,1,0,453940.0,207531.0,51.763871,-1.2198064,POINT (453940 207531),1,1,1,0,,,,,,,,,,,,,,,1
111,SE59RW,"King's College Hospital, London",KC,King's College Hospital HASU,E01003076,NHS South East London ICB - 72Q,E38000244,SICBL,England,NHS South East London Integrated Care Board,E54000030,London,1,1,1,nearest,0,,,,,,,,,,,,,,,,,,,,,1,1,1,nearest,0,,,,,,,,,,,,,,,,,,,,,,,,,,,0,0,532536.0,176228.0,51.469505,-0.093251533,POINT (532536 176228),1,1,1,0,,,,,,,,,,,,,,,0
79,NG174JL,"Kings Mill Hospital, Mansfield",KM,Kings Mill Hospital,E01027985,NHS Nottingham and Nottinghamshire ICB - 52R,E38000243,SICBL,England,NHS Nottingham and Nottinghamshire Integrated Care Board,E54000060,East Midlands,1,0,0,nearest,0,,,,,,,,,,,,,,,,,,,,,0,0,0,nearest,0,,,,,,,,,,,,,,,,,,,,,,,,,,,0,0,451071.0,359997.0,53.134692,-1.2380927,POINT (451071 359997),1,0,0,0,,,,,,,,,,,,,,,0
27,CT13NG,Kent and Canterbury Hospital,KT,Invicta Ward Kent and Canterbury Hospital,E01024046,NHS Kent and Medway ICB - 91Q,E38000237,SICBL,England,NHS Kent and Medway Integrated Care Board,E54000032,Kent and Medway,1,0,0,nearest,0,,,,,,,,,,,,,,,,,,,,,0,0,0,nearest,0,,,,,,,,,,,,,,,,,,,,,,,,,,,0,0,615456.0,156464.0,51.266589,1.0870832,POINT (615456 156464),1,0,0,0,,,,,,,,,,,,,,,0
97,PR29HT,Lancashire Teaching Hospitals NHS Foundation Trust,LA,Royal Preston Hospital,E01025300,NHS Lancashire and South Cumbria ICB - 01E,E38000227,SICBL,England,NHS Lancashire and South Cumbria Integrated Care Board,E54000048,Lancashire and South Cumbria,1,1,1,nearest,0,,,,,,,,,,,,,,,,,,,,,1,1,1,nearest,0,,,,,,,,,,,,,,,,,,,,,,,,,,,0,0,353495.0,433014.0,53.79135,-2.7074034,POINT (353495 433014),1,1,1,0,,,,,,,,,,,,,,,0
67,LN25QY,Lincoln County Hospital,LC,Lincoln County Hospital,E01026125,NHS Lincolnshire ICB - 71E,E38000238,SICBL,England,NHS Lincolnshire Integrated Care Board,E54000013,East Midlands,1,0,0,nearest,0,,,,,,,,,,,,,,,,,,,,,0,0,0,nearest,0,,,,,,,,,,,,,,,,,,,,,,,,,,,0,0,499010.0,371619.0,53.232388,-0.51814791,POINT (499010 371619),1,0,0,0,,,,,,,,,,,,,,,0
68,LS13EX,Leeds General Infirmary,LD,Leeds General Infirmary,E01033008,NHS West Yorkshire ICB - 15F,E38000225,SICBL,England,NHS West Yorkshire Integrated Care Board,E54000054,West Yorkshire and Harrogate,1,1,1,nearest,0,,,,,,,,,,,,,,,,,,,,,1,1,1,nearest,0,,,,,,,,,,,,,,,,,,,,,,,,,,,0,0,429621.0,433998.0,53.801445,-1.5517436,POINT (429621 433998),1,1,1,0,,,,,,,,,,,,,,,0
63,LE15WW,Leicester Royal Infirmary,LE,Leicester Royal Infirmary,E01013647,"NHS Leicester, Leicestershire and Rutland ICB - 04C",E38000097,SICBL,England,"NHS Leicester, Leicestershire and Rutland Integrated Care Board",E54000015,East Midlands,1,0,0,nearest,0,,,,,,,,,,,,,,,,,,,,,0,0,0,nearest,0,,,,,,,,,,,,,,,,,,,,,,,,,,,0,0,458660.0,303691.0,52.627817,-1.1348028,POINT (458660 303691),1,0,0,0,,,,,,,,,,,,,,,0
32,CW14QJ,"Leighton Hospital, Crewe",LG,Leighton Hospital,E01018480,NHS Cheshire and Merseyside ICB - 27D,E38000233,SICBL,England,NHS Cheshire and Merseyside Integrated Care Board,E54000008,Cheshire and Merseyside,1,0,0,nearest,0,,,,,,,,,,,,,,,,,,,,,0,0,0,nearest,0,,,,,,,,,,,,,,,,,,,,,,,,,,,0,0,368248.0,357940.0,53.117685,-2.4758631,POINT (368248 357940),1,0,0,0,,,,,,,,,,,,,,,0
112,SG14AB,"Lister Hospital, Stevenage",LS,Lister Hospital,E01023800,NHS Hertfordshire and West Essex ICB - 06K,E38000049,SICBL,England,NHS Hertfordshire and West Essex Integrated Care Board,E54000025,East of England (South),1,0,0,nearest,0,,,,,,,,,,,,,,,,,,,,,0,0,0,nearest,0,,,,,,,,,,,,,,,,,,,,,,,,,,,0,0,522999.0,226630.0,51.924611,-0.21272607,POINT (522999 226630),1,0,0,0,,,,,,,,,,,,,,,0
69,LU40DZ,Luton and Dunstable Hospital,LT,Luton and Dunstable Hospital,E01015713,"NHS Bedfordshire, Luton and Milton Keynes ICB - M1J4Y",E38000249,SICBL,England,"NHS Bedfordshire, Luton and Milton Keynes Integrated Care Board",E54000024,East of England (South),1,0,0,nearest,0,,,,,,,,,,,,,,,,,,,,,0,0,0,nearest,0,,,,,,,,,,,,,,,,,,,,,,,,,,,0,0,505086.0,222836.0,51.894177,-0.47426894,POINT (505086 222836),1,0,0,0,,,,,,,,,,,,,,,0
59,L78XP,Royal Liverpool University Hospital,LU,Royal Liverpool University Hospital,E01006747,NHS Cheshire and Merseyside ICB - 99A,E38000101,SICBL,England,NHS Cheshire and Merseyside Integrated Care Board,E54000008,Cheshire and Merseyside,0,0,0,nearest,0,,,,,,,,,,,,,,,,,,,,,0,0,0,nearest,0,,,,,,,,,,,,,,,,,,,,,,,,,,,0,0,335962.0,390733.0,53.409506,-2.9648088,POINT (335962 390733),0,0,0,0,,,,,,,,,,,,,,,0
64,LL137TD,Maelor Hospital (Wrexham),MA,Maelor Hospital,W01000349,Betsi Cadwaladr University Health Board,W11000023,LHB,Wales,,,,1,0,0,nearest,0,,,,,,,,,,,,,,,,,,,,,0,0,0,nearest,0,,,,,,,,,,,,,,,,,,,,,,,,,,,0,0,332375.0,350356.0,53.046173,-3.0101802,POINT (332375 350356),1,0,0,0,,,,,,,,,,,,,,,0
62,LA14RP,University Hospitals of Morecambe Bay NHS Foundation Trust,MB,Royal Lancaster Infirmary,E01033073,NHS Lancashire and South Cumbria ICB - 01K,E38000228,SICBL,England,NHS Lancashire and South Cumbria Integrated Care Board,E54000048,Lancashire and South Cumbria,1,0,0,nearest,0,,,,,,,,,,,,,,,,,,,,,0,0,0,nearest,0,,,,,,,,,,,,,,,,,,,,,,,,,,,0,0,347775.0,461064.0,54.042889,-2.7990215,POINT (347775 461064),1,0,0,0,,,,,,,,,,,,,,,0
71,ME169QQ,Maidstone District General Hospital,MD,Maidstone District General Hospital,E01033088,NHS Kent and Medway ICB - 91Q,E38000237,SICBL,England,NHS Kent and Medway Integrated Care Board,E54000032,Kent and Medway,1,0,0,nearest,0,,,,,,,,,,,,,,,,,,,,,0,0,0,nearest,0,,,,,,,,,,,,,,,,,,,,,,,,,,,0,0,573362.0,155654.0,51.273662,0.48397392,POINT (573362 155654),1,0,0,0,,,,,,,,,,,,,,,0
74,MK65LD,Milton Keynes General Hospital,MK,Milton Keynes General Hospital,E01016845,"NHS Bedfordshire, Luton and Milton Keynes ICB - M1J4Y",E38000249,SICBL,England,"NHS Bedfordshire, Luton and Milton Keynes Integrated Care Board",E54000024,East of England (South),1,0,0,nearest,0,,,,,,,,,,,,,,,,,,,,,0,0,0,nearest,0,,,,,,,,,,,,,,,,,,,,,,,,,,,0,0,486835.0,237195.0,52.026383,-0.73579539,POINT (486835 237195),1,0,0,0,,,,,,,,,,,,,,,0
138,WS29PS,"Manor Hospital, Walsall",MN,None (for 72h care),E01010363,NHS Black Country ICB - D2P2L,E38000259,SICBL,England,NHS Black Country Integrated Care Board,E54000062,North Midlands,0,0,0,nearest,0,,,,,,,,,,,,,,,,,,,,,0,0,0,nearest,0,,,,,,,,,,,,,,,,,,,,,,,,,,,0,0,400152.0,298264.0,52.582186,-1.9991893,POINT (400152 298264),0,0,0,0,,,,,,,,,,,,,,,0
110,SA66NL,Morriston Hospital (Swansea),MO,Morriston Hospital,W01000816,Swansea Bay University Health Board,W11000031,LHB,Wales,,,,1,0,0,nearest,0,,,,,,,,,,,,,,,,,,,,,0,0,0,nearest,0,,,,,,,,,,,,,,,,,,,,,,,,,,,0,0,266311.0,200206.0,51.684652,-3.9352525,POINT (266311 200206),1,0,0,0,,,,,,,,,,,,,,,0
126,TA15DA,"Musgrove Park Hospital, Taunton",MP,Musgrove Park Hospital,E01029302,NHS Somerset ICB - 11X,E38000150,SICBL,England,NHS Somerset Integrated Care Board,E54000038,"Gloucester, BSW, BNSSG and Somerset",1,0,0,nearest,1,30.0,0.0,60.0,0.0,80.0,0.0,103.58439306358382,10.04595075688118,133.8374149659864,9.799614890283385,230.75050505050504,10.014635960222952,290.75050505050507,10.014635960222934,-0.5010779942064494,0.0463604812127476,0.0954931266686438,0.0051921099359587,0.576715025682445,0.1536692513102631,0,0,0,nearest,0,,,,,,,,,,,,,,,,,,,,,0.0954931266686438,0.0051921099359587,-0.5010779942064494,0.0463604812127476,0.576715025682445,0.1536692513102631,1,0,321541.0,124218.0,51.01197,-3.1197783,POINT (321541 124218),1,0,0,1,30.0,0.0,60.0,0.0,80.0,0.0,103.58439306358382,10.04595075688118,133.8374149659864,9.799614890283385,230.75050505050504,10.014635960222952,290.75050505050507,10.014635960222934,1
72,ME75NY,"Medway Maritime Hospital, Gillingham",MW,Medway Maritime Hospital,E01016048,NHS Kent and Medway ICB - 91Q,E38000237,SICBL,England,NHS Kent and Medway Integrated Care Board,E54000032,Kent and Medway,0,0,0,nearest,0,,,,,,,,,,,,,,,,,,,,,0,0,0,nearest,0,,,,,,,,,,,,,,,,,,,,,,,,,,,0,0,577021.0,167424.0,51.378267,0.54221759,POINT (577021 167424),0,0,0,0,,,,,,,,,,,,,,,0
14,BS105NB,North Bristol Hospital (Southmead),NB,North Bristol Hospitals,E01014631,"NHS Bristol, North Somerset and South Gloucestershire ICB - 15C",E38000222,SICBL,England,"NHS Bristol, North Somerset and South Gloucestershire Integrated Care Board",E54000039,"Gloucester, BSW, BNSSG and Somerset",1,1,1,nearest,1,30.0,0.0,60.0,0.0,80.0,0.0,99.16686602870811,5.264711601815784,129.24690618762477,5.447327363871352,,,129.3358108108108,5.194921776435487,-0.6667459725728347,0.1996303582761241,0.1258392254997007,0.0418241951811124,0.6225192290602101,0.100755704162162,1,1,1,nearest,1,30.0,0.0,60.0,0.0,80.0,0.0,124.0270297785696,18.8673218115748,154.59180470793373,18.638143786509147,,,154.93036935704515,18.71351814518686,-0.6111983699640826,0.1951684574135519,0.1163149091681852,0.0407348105122746,0.6047534686008237,0.1063231554477508,0.1258392254997007,0.0418241951811124,-0.6111983699640826,0.1996303582761241,0.6225192290602101,0.1063231554477508,1,1,358935.0,177766.0,51.497333,-2.5929485,POINT (358935 177766),1,1,1,1,30.0,0.0,60.0,0.0,80.0,0.0,124.0270297785696,18.8673218115748,154.59180470793373,18.638143786509147,,,154.93036935704515,18.71351814518686,1
139,WV100QP,"New Cross Hospital, Wolverhampton",NC,New Cross Hospital,E01010476,NHS Black Country ICB - D2P2L,E38000259,SICBL,England,NHS Black Country Integrated Care Board,E54000062,North Midlands,1,0,0,nearest,0,,,,,,,,,,,,,,,,,,,,,0,0,0,nearest,0,,,,,,,,,,,,,,,,,,,,,,,,,,,0,0,393569.0,300055.0,52.598247,-2.0963786,POINT (393569 300055),1,0,0,0,,,,,,,,,,,,,,,0
36,DH15TW,University Hospital of North Durham,ND,University Hospital of North Durham,E01020702,NHS North East and North Cumbria ICB - 84H,E38000234,SICBL,England,NHS North East and North Cumbria Integrated Care Board,E54000050,North East and Cumbria,1,0,0,nearest,0,,,,,,,,,,,,,,,,,,,,,0,0,0,nearest,0,,,,,,,,,,,,,,,,,,,,,,,,,,,0,0,426275.0,543854.0,54.788899,-1.5929282,POINT (426275 543854),1,0,0,0,,,,,,,,,,,,,,,0
86,NR47UY,Norfolk and Norwich University Hospital,NF,Norfolk and Norwich University Hospital,E01026883,NHS Norfolk and Waveney ICB - 26A,E38000239,SICBL,England,NHS Norfolk and Waveney Integrated Care Board,E54000022,East of England (North),1,0,0,nearest,0,,,,,,,,,,,,,,,,,,,,,0,0,0,nearest,0,,,,,,,,,,,,,,,,,,,,,,,,,,,0,0,618143.0,307129.0,52.618086,1.2210668,POINT (618143 307129),1,0,0,0,,,,,,,,,,,,,,,0
82,NN15BD,Northampton General Hospital,NG,Northampton General Hospital,E01027223,NHS Northamptonshire ICB - 78H,E38000262,SICBL,England,NHS Northamptonshire Integrated Care Board,E54000059,East Midlands,1,0,0,nearest,0,,,,,,,,,,,,,,,,,,,,,0,0,0,nearest,0,,,,,,,,,,,,,,,,,,,,,,,,,,,0,0,476123.0,260466.0,52.237132,-0.88668728,POINT (476123 260466),1,0,0,0,,,,,,,,,,,,,,,0
80,NG51PB,Nottingham City Hospital,NO,None (for 72h care),E01013967,NHS Nottingham and Nottinghamshire ICB - 52R,E38000243,SICBL,England,NHS Nottingham and Nottinghamshire Integrated Care Board,E54000060,East Midlands,0,0,0,nearest,0,,,,,,,,,,,,,,,,,,,,,0,0,0,nearest,0,,,,,,,,,,,,,,,,,,,,,,,,,,,0,0,456481.0,343879.0,52.989277,-1.16006,POINT (456481 343879),0,0,0,0,,,,,,,,,,,,,,,0
76,NE236NZ,"Northumbria Specialist Emergency Care Hospital, Cramlington",NS,Northumbria Specialist Emergency Care Hospital HASU,E01027394,NHS North East and North Cumbria ICB - 00L,E38000130,SICBL,England,NHS North East and North Cumbria Integrated Care Board,E54000050,North East and Cumbria,1,0,0,nearest,0,,,,,,,,,,,,,,,,,,,,,0,0,0,nearest,0,,,,,,,,,,,,,,,,,,,,,,,,,,,0,0,427587.0,575599.0,55.074089,-1.5694923,POINT (427587 575599),1,0,0,0,,,,,,,,,,,,,,,0
132,TS198PE,University Hospitals of North Tees and Hartlepool,NT,University Hospitals of North Tees and Hartlepool,E01032544,NHS North East and North Cumbria ICB - 16C,E38000247,SICBL,England,NHS North East and North Cumbria Integrated Care Board,E54000050,North East and Cumbria,1,0,0,nearest,0,,,,,,,,,,,,,,,,,,,,,0,0,0,nearest,0,,,,,,,,,,,,,,,,,,,,,,,,,,,0,0,442318.0,521055.0,54.582933,-1.3467595,POINT (442318 521055),1,0,0,0,,,,,,,,,,,,,,,0
48,HA13UJ,"Northwick Park Hospital, Harrow",NW,Northwick Park Hospital HASU,E01000568,NHS North West London ICB - W2U3Z,E38000256,SICBL,England,NHS North West London Integrated Care Board,E54000027,London,1,0,0,nearest,0,,,,,,,,,,,,,,,,,,,,,0,0,0,nearest,0,,,,,,,,,,,,,,,,,,,,,,,,,,,0,0,516346.0,187581.0,51.575098,-0.32248145,POINT (516346 187581),1,0,0,0,,,,,,,,,,,,,,,0
22,CF479DT,Prince Charles Hospital (Merthyr Tydfil),PC,Prince Charles Hospital,W01001299,Cwm Taf Morgannwg University Health Board,W11000030,LHB,Wales,,,,1,0,0,nearest,0,,,,,,,,,,,,,,,,,,,,,0,0,0,nearest,0,,,,,,,,,,,,,,,,,,,,,,,,,,,0,0,304481.0,208161.0,51.763954,-3.3855045,POINT (304481 208161),1,0,0,0,,,,,,,,,,,,,,,0
9,BL97TD,Pennine Acute Hospitals NHS Trust,PE,Fairfield General Hospital,E01004954,NHS Greater Manchester ICB - 00V,E38000024,SICBL,England,NHS Greater Manchester Integrated Care Board,E54000057,Greater Manchester,1,0,0,nearest,0,,,,,,,,,,,,,,,,,,,,,0,0,0,nearest,0,,,,,,,,,,,,,,,,,,,,,,,,,,,0,0,383200.0,411579.0,53.600505,-2.2553361,POINT (383200 411579),1,0,0,0,,,,,,,,,,,,,,,0
90,PE219QS,"Pilgrim Hospital, Boston",PL,Pilgrim Hospital,E01026021,NHS Lincolnshire ICB - 71E,E38000238,SICBL,England,NHS Lincolnshire Integrated Care Board,E54000013,East Midlands,0,0,0,nearest,0,,,,,,,,,,,,,,,,,,,,,0,0,0,nearest,0,,,,,,,,,,,,,,,,,,,,,,,,,,,0,0,533685.0,345596.0,52.991023,-0.0097936295,POINT (533685 345596),0,0,0,0,,,,,,,,,,,,,,,0
136,WF14DG,"Pinderfields Hospital, Wakefield",PN,Pinderfields Hospital,E01011884,NHS West Yorkshire ICB - 03R,E38000190,SICBL,England,NHS West Yorkshire Integrated Care Board,E54000054,West Yorkshire and Harrogate,1,0,0,nearest,0,,,,,,,,,,,,,,,,,,,,,0,0,0,nearest,0,,,,,,,,,,,,,,,,,,,,,,,,,,,0,0,433875.0,421914.0,53.69258,-1.4884777,POINT (433875 421914),1,0,0,0,,,,,,,,,,,,,,,0
7,BH152JB,Poole Hospital,PO,Poole Hospital,E01015468,NHS Dorset ICB - 11J,E38000045,SICBL,England,NHS Dorset Integrated Care Board,E54000041,Wessex,0,0,0,nearest,0,,,,,,,,,,,,,,,,,,,,,0,0,0,nearest,0,,,,,,,,,,,,,,,,,,,,,,,,,,,0,0,401994.0,91374.0,50.721987,-1.9731169,POINT (401994 91374),0,0,0,0,,,,,,,,,,,,,,,0
107,SA148QF,Prince Philip Hospital (Llanelli),PP,Prince Philip Hospital,W01000652,Hywel Dda University Health Board,W11000025,LHB,Wales,,,,1,0,0,nearest,0,,,,,,,,,,,,,,,,,,,,,0,0,0,nearest,0,,,,,,,,,,,,,,,,,,,,,,,,,,,0,0,252459.0,201367.0,51.691612,-4.1359742,POINT (252459 201367),1,0,0,0,,,,,,,,,,,,,,,0
13,BR68ND,Princess Royal University Hospital,PR,Princess Royal University Hospital HASU,E01000751,NHS South East London ICB - 72Q,E38000244,SICBL,England,NHS South East London Integrated Care Board,E54000030,London,1,0,0,nearest,0,,,,,,,,,,,,,,,,,,,,,0,0,0,nearest,0,,,,,,,,,,,,,,,,,,,,,,,,,,,0,0,543478.0,164974.0,51.365713,0.059625435,POINT (543478 164974),1,0,0,0,,,,,,,,,,,,,,,0
92,PE39GZ,Peterborough City Hospital,PT,Peterborough City Hospital,E01015691,NHS Cambridgeshire and Peterborough ICB - 06H,E38000260,SICBL,England,NHS Cambridgeshire and Peterborough Integrated Care Board,E54000056,East of England (South),1,0,0,nearest,0,,,,,,,,,,,,,,,,,,,,,0,0,0,nearest,0,,,,,,,,,,,,,,,,,,,,,,,,,,,0,0,516622.0,300016.0,52.585451,-0.28009333,POINT (516622 300016),1,0,0,0,,,,,,,,,,,,,,,0
21,CF311RQ,Princess Of Wales Hospital (Bridgend),PW,Princess Of Wales Hospital,W01001038,Cwm Taf Morgannwg University Health Board,W11000030,LHB,Wales,,,,1,0,0,nearest,0,,,,,,,,,,,,,,,,,,,,,0,0,0,nearest,0,,,,,,,,,,,,,,,,,,,,,,,,,,,0,0,291047.0,181033.0,51.517676,-3.5716382,POINT (291047 181033),1,0,0,0,,,,,,,,,,,,,,,0
96,PO63LY,"Queen Alexandra Hospital, Portsmouth",QA,Queen Alexandra Hospital Portsmouth,E01017051,NHS Hampshire and Isle of Wight ICB - 10R,E38000137,SICBL,England,NHS Hampshire and Isle of Wight Integrated Care Board,E54000042,Wessex,1,0,0,nearest,0,,,,,,,,,,,,,,,,,,,,,0,0,0,nearest,0,,,,,,,,,,,,,,,,,,,,,,,,,,,0,0,465473.0,105974.0,50.849589,-1.0713238,POINT (465473 105974),1,0,0,0,,,,,,,,,,,,,,,0
34,DE130RB,"Queens Hospital, Burton upon Trent",QB,Queens Hospital Burton upon Trent,E01029435,NHS Staffordshire and Stoke-on-Trent ICB - 05D,E38000053,SICBL,England,NHS Staffordshire and Stoke-on-Trent Integrated Care Board,E54000010,North Midlands,0,0,0,nearest,0,,,,,,,,,,,,,,,,,,,,,0,0,0,nearest,0,,,,,,,,,,,,,,,,,,,,,,,,,,,0,0,423313.0,324460.0,52.817179,-1.6555278,POINT (423313 324460),0,0,0,0,,,,,,,,,,,,,,,0
0,B152TH,"Queen Elizabeth Hospital, Birmingham",QE,Queen Elizabeth Hospital Edgbaston,E01033562,NHS Birmingham and Solihull ICB - 15E,E38000258,SICBL,England,NHS Birmingham and Solihull Integrated Care Board,E54000055,West Midlands,1,1,1,nearest,0,,,,,,,,,,,,,,,,,,,,,1,1,1,nearest,0,,,,,,,,,,,,,,,,,,,,,,,,,,,0,0,404427.0,283926.0,52.453272,-1.9362835,POINT (404427 283926),1,1,1,0,,,,,,,,,,,,,,,0
78,NE96SX,"Queen Elizabeth Hospital, Gateshead",QG,None (for 72h care),E01008219,NHS North East and North Cumbria ICB - 13T,E38000212,SICBL,England,NHS North East and North Cumbria Integrated Care Board,E54000050,North East and Cumbria,0,0,0,nearest,0,,,,,,,,,,,,,,,,,,,,,0,0,0,nearest,0,,,,,,,,,,,,,,,,,,,,,,,,,,,0,0,426939.0,560550.0,54.938896,-1.5810513,POINT (426939 560550),0,0,0,0,,,,,,,,,,,,,,,0
91,PE304ET,"Queen Elizabeth Hospital, Kings Lynn",QK,Queen Elizabeth Hospital Kings Lynn,E01026714,NHS Norfolk and Waveney ICB - 26A,E38000239,SICBL,England,NHS Norfolk and Waveney Integrated Care Board,E54000022,East of England (North),1,0,0,nearest,0,,,,,,,,,,,,,,,,,,,,,0,0,0,nearest,0,,,,,,,,,,,,,,,,,,,,,,,,,,,0,0,565229.0,320493.0,52.756781,0.44699931,POINT (565229 320493),1,0,0,0,,,,,,,,,,,,,,,0
28,CT94AN,"Queen Elizabeth the Queen Mother Hospital, Margate",QM,Queen Elizabeth the Queen Mother Hospital,E01024694,NHS Kent and Medway ICB - 91Q,E38000237,SICBL,England,NHS Kent and Medway Integrated Care Board,E54000032,Kent and Medway,0,0,0,nearest,0,,,,,,,,,,,,,,,,,,,,,0,0,0,nearest,0,,,,,,,,,,,,,,,,,,,,,,,,,,,0,0,635967.0,169786.0,51.378053,1.3893845,POINT (635967 169786),0,0,0,0,,,,,,,,,,,,,,,0
81,NG72UH,Queen's Medical Centre - Nottingham,QN,Queen's Medical Centre - Nottingham,E01033410,NHS Nottingham and Nottinghamshire ICB - 52R,E38000243,SICBL,England,NHS Nottingham and Nottinghamshire Integrated Care Board,E54000060,East Midlands,1,1,1,nearest,0,,,,,,,,,,,,,,,,,,,,,1,1,1,nearest,0,,,,,,,,,,,,,,,,,,,,,,,,,,,0,0,454811.0,338760.0,52.943439,-1.1857996,POINT (454811 338760),1,1,1,0,,,,,,,,,,,,,,,0
99,RG15AN,"Royal Berkshire Hospital, Reading",RB,Royal Berkshire Hospital,E01016414,"NHS Buckinghamshire, Oxfordshire and Berkshire West ICB - 15A",E38000221,SICBL,England,"NHS Buckinghamshire, Oxfordshire and Berkshire West Integrated Care Board",E54000044,Thames Valley,1,0,0,nearest,0,,,,,,,,,,,,,,,,,,,,,0,0,0,nearest,0,,,,,,,,,,,,,,,,,,,,,,,,,,,0,0,472458.0,173005.0,51.451402,-0.95864504,POINT (472458 173005),1,0,0,0,,,,,,,,,,,,,,,0
83,NP202UB,Royal Gwent Hospital (Newport),RG,Royal Gwent Hospital,W01001686,Aneurin Bevan University Health Board,W11000028,LHB,Wales,,,,0,0,0,nearest,0,,,,,,,,,,,,,,,,,,,,,0,0,0,nearest,0,,,,,,,,,,,,,,,,,,,,,,,,,,,0,0,330932.0,187243.0,51.579798,-2.9981523,POINT (330932 187243),0,0,0,0,,,,,,,,,,,,,,,0
40,DY12HQ,Russells Hall Hospital,RH,Russells Hall Hospital,E01009884,NHS Black Country ICB - D2P2L,E38000259,SICBL,England,NHS Black Country Integrated Care Board,E54000062,North Midlands,1,0,0,nearest,0,,,,,,,,,,,,,,,,,,,,,0,0,0,nearest,0,,,,,,,,,,,,,,,,,,,,,,,,,,,0,0,392104.0,289385.0,52.502306,-2.1177498,POINT (392104 289385),1,0,0,0,,,,,,,,,,,,,,,0
41,E11BB,The Royal London Hospital,RL,Royal London Hospital HASU,E01004322,NHS North East London ICB - A3A8R,E38000255,SICBL,England,NHS North East London Integrated Care Board,E54000029,London,1,1,1,nearest,0,,,,,,,,,,,,,,,,,,,,,1,1,1,nearest,0,,,,,,,,,,,,,,,,,,,,,,,,,,,0,0,534833.0,181799.0,51.519026,-0.058075032,POINT (534833 181799),1,1,1,0,,,,,,,,,,,,,,,0
122,ST46QG,Royal Stoke University Hospital,RS,Royal Stoke University Hospital,E01014294,NHS Staffordshire and Stoke-on-Trent ICB - 05W,E38000175,SICBL,England,NHS Staffordshire and Stoke-on-Trent Integrated Care Board,E54000010,North Midlands,1,1,1,nearest,0,,,,,,,,,,,,,,,,,,,,,1,1,1,nearest,0,,,,,,,,,,,,,,,,,,,,,,,,,,,0,0,385678.0,345211.0,53.004021,-2.2148723,POINT (385678 345211),1,1,1,0,,,,,,,,,,,,,,,0
105,S602UD,Rotherham General Hospital,RT,Rotherham Hospital,E01007678,NHS South Yorkshire ICB - 03L,E38000141,SICBL,England,NHS South Yorkshire Integrated Care Board,E54000061,South Yorkshire,0,0,0,nearest,0,,,,,,,,,,,,,,,,,,,,,0,0,0,nearest,0,,,,,,,,,,,,,,,,,,,,,,,,,,,0,0,443795.0,391046.0,53.414411,-1.3425728,POINT (443795 391046),0,0,0,0,,,,,,,,,,,,,,,0
75,NE14LP,"Royal Victoria Infirmary, Newcastle",RV,Royal Victoria Infirmary,E01008395,NHS North East and North Cumbria ICB - 13T,E38000212,SICBL,England,NHS North East and North Cumbria Integrated Care Board,E54000050,North East and Cumbria,1,1,1,nearest,0,,,,,,,,,,,,,,,,,,,,,1,1,1,nearest,0,,,,,,,,,,,,,,,,,,,,,,,,,,,0,0,424540.0,565083.0,54.979753,-1.6181094,POINT (424540 565083),1,1,1,0,,,,,,,,,,,,,,,0
70,M68HD,Salford Royal NHS Foundation Trust,SA,Salford Royal Hospital,E01005719,NHS Greater Manchester ICB - 01G,E38000143,SICBL,England,NHS Greater Manchester Integrated Care Board,E54000057,Greater Manchester,1,1,1,nearest,0,,,,,,,,,,,,,,,,,,,,,1,1,1,nearest,0,,,,,,,,,,,,,,,,,,,,,,,,,,,0,0,378686.0,398995.0,53.487232,-2.3226835,POINT (378686 398995),1,1,1,0,,,,,,,,,,,,,,,0
37,DN157BH,Scunthorpe General Hospital,SC,Scunthorpe General Hospital,E01013333,NHS Humber and North Yorkshire ICB - 03K,E38000122,SICBL,England,NHS Humber and North Yorkshire Integrated Care Board,E54000051,Humber Coast and Vale,1,0,0,nearest,0,,,,,,,,,,,,,,,,,,,,,0,0,0,nearest,0,,,,,,,,,,,,,,,,,,,,,,,,,,,0,0,488341.0,410921.0,53.58744,-0.66693886,POINT (488341 410921),1,0,0,0,,,,,,,,,,,,,,,0
120,SS00RY,Southend Hospital,SE,Southend Hospital,E01015860,NHS Mid and South Essex ICB - 99G,E38000168,SICBL,England,NHS Mid and South Essex Integrated Care Board,E54000026,East of England (South),1,0,0,nearest,0,,,,,,,,,,,,,,,,,,,,,0,0,0,nearest,0,,,,,,,,,,,,,,,,,,,,,,,,,,,0,0,586524.0,187310.0,51.553836,0.68909337,POINT (586524 187310),1,0,0,0,,,,,,,,,,,,,,,0
98,PR86PN,Southport and Formby District General,SF,Southport and Formby District General,E01006999,NHS Cheshire and Merseyside ICB - 01V,E38000170,SICBL,England,NHS Cheshire and Merseyside Integrated Care Board,E54000008,Cheshire and Merseyside,0,0,0,nearest,0,,,,,,,,,,,,,,,,,,,,,0,0,0,nearest,0,,,,,,,,,,,,,,,,,,,,,,,,,,,0,0,335399.0,415683.0,53.633665,-2.9784316,POINT (335399 415683),0,0,0,0,,,,,,,,,,,,,,,0
123,SW170QT,"St George's Hospital, London",SG,St George's Hospital HASU,E01004617,NHS South West London ICB - 36L,E38000245,SICBL,England,NHS South West London Integrated Care Board,E54000031,London,1,1,1,nearest,0,,,,,,,,,,,,,,,,,,,,,1,1,1,nearest,0,,,,,,,,,,,,,,,,,,,,,,,,,,,0,0,526925.0,171325.0,51.426727,-0.17574589,POINT (526925 171325),1,1,1,0,,,,,,,,,,,,,,,0
103,S102JF,"Royal Hallamshire Hospital, Sheffield",SH,Royal Hallamshire Hospital,E01007866,NHS South Yorkshire ICB - 03N,E38000146,SICBL,England,NHS South Yorkshire Integrated Care Board,E54000061,South Yorkshire,1,1,1,nearest,0,,,,,,,,,,,,,,,,,,,,,1,1,1,nearest,0,,,,,,,,,,,,,,,,,,,,,,,,,,,0,0,433794.0,386966.0,53.378472,-1.4934651,POINT (433794 386966),1,1,1,0,,,,,,,,,,,,,,,0
113,SK27JE,Stockport NHS Foundation Trust,SK,Stepping Hill Hospital,E01005801,NHS Greater Manchester ICB - 01W,E38000174,SICBL,England,NHS Greater Manchester Integrated Care Board,E54000057,Greater Manchester,1,0,0,nearest,0,,,,,,,,,,,,,,,,,,,,,0,0,0,nearest,0,,,,,,,,,,,,,,,,,,,,,,,,,,,0,0,391316.0,387446.0,53.383787,-2.1320199,POINT (391316 387446),1,0,0,0,,,,,,,,,,,,,,,0
95,PO305TG,"St Mary's Hospital, Newport",SM,St Mary's Hospital Newport,E01017334,NHS Hampshire and Isle of Wight ICB - D9Y0V,E38000253,SICBL,England,NHS Hampshire and Isle of Wight Integrated Care Board,E54000042,Wessex,1,0,0,nearest,0,,,,,,,,,,,,,,,,,,,,,0,0,0,nearest,0,,,,,,,,,,,,,,,,,,,,,,,,,,,0,0,449458.0,90396.0,50.711101,-1.3008871,POINT (449458 90396),1,0,0,0,,,,,,,,,,,,,,,0
116,SO166YD,Southampton General Hospital,SO,Southampton General Hospital,E01017251,NHS Hampshire and Isle of Wight ICB - D9Y0V,E38000253,SICBL,England,NHS Hampshire and Isle of Wight Integrated Care Board,E54000042,Wessex,1,1,1,nearest,0,,,,,,,,,,,,,,,,,,,,,1,1,1,nearest,0,,,,,,,,,,,,,,,,,,,,,,,,,,,0,0,439793.0,114993.0,50.933019,-1.435104,POINT (439793 114993),1,1,1,0,,,,,,,,,,,,,,,0
56,KT160PZ,"St Peter's Hospital, Chertsey",SP,St Peter's Hospital,E01030677,NHS Surrey Heartlands ICB - 92A,E38000246,SICBL,England,NHS Surrey Heartlands Integrated Care Board,E54000052,Frimley ICS,1,0,0,nearest,0,,,,,,,,,,,,,,,,,,,,,0,0,0,nearest,0,,,,,,,,,,,,,,,,,,,,,,,,,,,0,0,502628.0,165256.0,51.377091,-0.52683986,POINT (502628 165256),1,0,0,0,,,,,,,,,,,,,,,0
94,PO196SE,"St Richards Hospital, Chichester",SR,St Richards Hospital,E01031483,NHS Sussex ICB - 70F,E38000248,SICBL,England,NHS Sussex Integrated Care Board,E54000053,Sussex,1,0,0,nearest,0,,,,,,,,,,,,,,,,,,,,,0,0,0,nearest,0,,,,,,,,,,,,,,,,,,,,,,,,,,,0,0,486835.0,105616.0,50.843562,-0.7680267,POINT (486835 105616),1,0,0,0,,,,,,,,,,,,,,,0
118,SP28BJ,Salisbury District Hospital,SS,Salisbury District Hospital,E01032000,"NHS Bath and North East Somerset, Swindon and Wiltshire ICB - 92G",E38000231,SICBL,England,"NHS Bath and North East Somerset, Swindon and Wiltshire Integrated Care Board",E54000040,"Gloucester, BSW, BNSSG and Somerset",1,0,0,nearest,1,30.0,0.0,60.0,0.0,80.0,0.0,101.32594142259414,9.173353620787571,131.5107913669065,9.480267001128109,196.095,9.375115725781466,256.095,9.37511572578146,-0.5384591733320488,0.025992470613028,0.1020553497675788,0.008032505909839,0.5992880460675982,0.1377688819342466,0,0,0,nearest,0,,,,,,,,,,,,,,,,,,,,,0.1020553497675788,0.008032505909839,-0.5384591733320488,0.025992470613028,0.5992880460675982,0.1377688819342466,1,0,414831.0,127199.0,51.043955,-1.7898225,POINT (414831 127199),1,0,0,1,30.0,0.0,60.0,0.0,80.0,0.0,101.32594142259414,9.173353620787571,131.5107913669065,9.480267001128109,196.095,9.375115725781466,256.095,9.37511572578146,1
77,NE340PL,South Tyneside District Hospital,ST,None (for 72h care),E01008592,NHS North East and North Cumbria ICB - 00N,E38000163,SICBL,England,NHS North East and North Cumbria Integrated Care Board,E54000050,North East and Cumbria,0,0,0,nearest,0,,,,,,,,,,,,,,,,,,,,,0,0,0,nearest,0,,,,,,,,,,,,,,,,,,,,,,,,,,,0,0,436591.0,564288.0,54.971872,-1.4299296,POINT (436591 564288),0,0,0,0,,,,,,,,,,,,,,,0
119,SR47TP,Sunderland Royal Hospital,SU,Sunderland Royal Hospital,E01008704,NHS North East and North Cumbria ICB - 00P,E38000176,SICBL,England,NHS North East and North Cumbria Integrated Care Board,E54000050,North East and Cumbria,1,0,0,nearest,0,,,,,,,,,,,,,,,,,,,,,0,0,0,nearest,0,,,,,,,,,,,,,,,,,,,,,,,,,,,0,0,437866.0,556641.0,54.903063,-1.4110182,POINT (437866 556641),1,0,0,0,,,,,,,,,,,,,,,0
1,B714HJ,"Sandwell District Hospital, West Bromwich",SW,Sandwell District Hospital,E01010104,NHS Black Country ICB - D2P2L,E38000259,SICBL,England,NHS Black Country Integrated Care Board,E54000062,North Midlands,1,0,0,nearest,0,,,,,,,,,,,,,,,,,,,,,0,0,0,nearest,0,,,,,,,,,,,,,,,,,,,,,,,,,,,0,0,400919.0,292165.0,52.527357,-1.9878844,POINT (400919 292165),1,0,0,0,,,,,,,,,,,,,,,0
130,TQ27AA,Torbay Hospital,TB,Torbay Hospital,E01015251,NHS Devon ICB - 15N,E38000230,SICBL,England,NHS Devon Integrated Care Board,E54000037,"Devon, Cornwall and Isles of Scilly",1,0,0,nearest,1,30.0,0.0,60.0,0.0,80.0,0.0,99.1227027027027,8.295861908938502,129.17723076923076,8.268251697599249,209.82222222222225,7.406249680647072,269.8222222222222,7.406249680647073,-0.5299024654966067,0.0230203569609309,0.1002578189124254,0.0044545435704455,0.6008506958554541,0.1402276305777945,0,0,0,nearest,0,,,,,,,,,,,,,,,,,,,,,0.1002578189124254,0.0044545435704455,-0.5299024654966067,0.0230203569609309,0.6008506958554541,0.1402276305777945,1,0,289858.0,65877.0,50.482325,-3.5537901,POINT (289858 65877),1,0,0,1,30.0,0.0,60.0,0.0,80.0,0.0,99.1227027027027,8.295861908938502,129.17723076923076,8.268251697599249,209.82222222222225,7.406249680647072,269.8222222222222,7.406249680647073,1
127,TF16TF,"Princess Royal Hospital, Telford",TF,Princess Royal Hospital Telford,E01014102,"NHS Shropshire, Telford and Wrekin ICB - M2L0M",E38000257,SICBL,England,"NHS Shropshire, Telford and Wrekin Integrated Care Board",E54000011,North Midlands,1,0,0,nearest,0,,,,,,,,,,,,,,,,,,,,,0,0,0,nearest,0,,,,,,,,,,,,,,,,,,,,,,,,,,,0,0,365606.0,312873.0,52.712417,-2.510547,POINT (365606 312873),1,0,0,0,,,,,,,,,,,,,,,0
131,TR13LQ,"Royal Cornwall Hospital, Truro",TR,Royal Cornwall Hospital,E01018855,NHS Cornwall and the Isles of Scilly ICB - 11N,E38000089,SICBL,England,NHS Cornwall and the Isles of Scilly Integrated Care Board,E54000036,"Devon, Cornwall and Isles of Scilly",1,0,0,nearest,1,30.0,0.0,60.0,0.0,80.0,0.0,108.40916666666668,9.811597938303464,138.20586797066014,9.571783225187271,243.42461538461535,10.454679316859329,303.4246153846154,10.454679316859318,-0.4825777296384163,0.0571047034237402,0.0918938032431528,0.006765758268726,0.5789120561451637,0.1540347661571868,0,0,0,nearest,0,,,,,,,,,,,,,,,,,,,,,0.0918938032431528,0.006765758268726,-0.4825777296384163,0.0571047034237402,0.5789120561451637,0.1540347661571868,1,0,179563.0,45467.0,50.267934,-5.0946045,POINT (179563 45467),1,0,0,1,30.0,0.0,60.0,0.0,80.0,0.0,108.40916666666668,9.811597938303464,138.20586797066014,9.571783225187271,243.42461538461535,10.454679316859329,303.4246153846154,10.454679316859318,1
129,TN24QJ,Tunbridge Wells Hospital,TU,None (for 72h care),E01024825,NHS Kent and Medway ICB - 91Q,E38000237,SICBL,England,NHS Kent and Medway Integrated Care Board,E54000032,Kent and Medway,0,0,0,nearest,0,,,,,,,,,,,,,,,,,,,,,0,0,0,nearest,0,,,,,,,,,,,,,,,,,,,,,,,,,,,0,0,561472.0,141407.0,51.149149,0.30726198,POINT (561472 141407),0,0,0,0,,,,,,,,,,,,,,,0
87,NW12BU,"University College London Hospital, London",UC,University College Hospital HASU,E01000854,NHS North Central London ICB - 93C,E38000240,SICBL,England,NHS North Central London Integrated Care Board,E54000028,London,1,1,1,nearest,0,,,,,,,,,,,,,,,,,,,,,1,1,1,nearest,0,,,,,,,,,,,,,,,,,,,,,,,,,,,0,0,529340.0,182306.0,51.524865,-0.13701251,POINT (529340 182306),1,1,1,0,,,,,,,,,,,,,,,0
134,WA51QG,Warrington Hospital,WA,Warrington Hospital,E01012457,NHS Cheshire and Merseyside ICB - 02E,E38000194,SICBL,England,NHS Cheshire and Merseyside Integrated Care Board,E54000008,Cheshire and Merseyside,0,0,0,nearest,0,,,,,,,,,,,,,,,,,,,,,0,0,0,nearest,0,,,,,,,,,,,,,,,,,,,,,,,,,,,0,0,359484.0,388746.0,53.393982,-2.6107326,POINT (359484 388746),0,0,0,0,,,,,,,,,,,,,,,0
109,SA612PZ,Withybush General Hospital (Haverfordwest),WB,Withybush General Hospital,W01000572,Hywel Dda University Health Board,W11000025,LHB,Wales,,,,1,0,0,nearest,0,,,,,,,,,,,,,,,,,,,,,0,0,0,nearest,0,,,,,,,,,,,,,,,,,,,,,,,,,,,0,0,195710.0,216835.0,51.812716,-4.9650724,POINT (195710 216835),1,0,0,0,,,,,,,,,,,,,,,0
18,CA288JG,"West Cumberland Hospital, Whitehaven",WC,West Cumberland Hospital,E01019285,NHS North East and North Cumbria ICB - 01H,E38000215,SICBL,England,NHS North East and North Cumbria Integrated Care Board,E54000050,North East and Cumbria,0,0,0,nearest,0,,,,,,,,,,,,,,,,,,,,,0,0,0,nearest,0,,,,,,,,,,,,,,,,,,,,,,,,,,,0,0,298940.0,516115.0,54.530195,-3.5631749,POINT (298940 516115),0,0,0,0,,,,,,,,,,,,,,,0
15,BS234TQ,"Weston General Hospital, Weston-super-Mare",WG,Weston General Hospital,E01014803,"NHS Bristol, North Somerset and South Gloucestershire ICB - 15C",E38000222,SICBL,England,"NHS Bristol, North Somerset and South Gloucestershire Integrated Care Board",E54000039,"Gloucester, BSW, BNSSG and Somerset",1,0,0,nearest,1,30.0,0.0,60.0,0.0,80.0,0.0,99.91783088235294,7.58690073017821,129.7718120805369,7.293436748264225,203.85773195876288,7.421012327780637,263.8577319587629,7.421012327780638,-0.5351960418350504,0.0189200783024685,0.1017716230816955,0.0055274766173662,0.5869633784730153,0.1451157864426872,0,0,0,nearest,0,,,,,,,,,,,,,,,,,,,,,0.1017716230816955,0.0055274766173662,-0.5351960418350504,0.0189200783024685,0.5869633784730153,0.1451157864426872,1,0,332406.0,158585.0,51.322335,-2.9713986,POINT (332406 158585),1,0,0,1,30.0,0.0,60.0,0.0,80.0,0.0,99.91783088235294,7.58690073017821,129.7718120805369,7.293436748264225,203.85773195876288,7.421012327780637,263.8577319587629,7.421012327780638,1
128,TN240LZ,"William Harvey Hospital, Ashford",WH,William Harvey Hospital,E01024004,NHS Kent and Medway ICB - 91Q,E38000237,SICBL,England,NHS Kent and Medway Integrated Care Board,E54000032,Kent and Medway,0,0,0,nearest,0,,,,,,,,,,,,,,,,,,,,,0,0,0,nearest,0,,,,,,,,,,,,,,,,,,,,,,,,,,,0,0,604090.0,142068.0,51.141489,0.91620878,POINT (604090 142068),0,0,0,0,,,,,,,,,,,,,,,0
117,SO225DG,"Royal Hampshire County Hospital, Winchester",WI,Royal Hampshire County Hospital,E01023263,NHS Hampshire and Isle of Wight ICB - D9Y0V,E38000253,SICBL,England,NHS Hampshire and Isle of Wight Integrated Care Board,E54000042,Wessex,1,0,0,nearest,0,,,,,,,,,,,,,,,,,,,,,0,0,0,nearest,0,,,,,,,,,,,,,,,,,,,,,,,,,,,1,0,446982.0,129328.0,51.061375,-1.3309587,POINT (446982 129328),1,0,0,0,,,,,,,,,,,,,,,1
31,CV345BW,Warwick Hospital,WK,Warwick Hospital,E01031323,NHS Coventry and Warwickshire ICB - B2M3M,E38000251,SICBL,England,NHS Coventry and Warwickshire Integrated Care Board,E54000018,West Midlands,0,0,0,nearest,0,,,,,,,,,,,,,,,,,,,,,0,0,0,nearest,0,,,,,,,,,,,,,,,,,,,,,,,,,,,0,0,428525.0,265839.0,52.28995,-1.5832152,POINT (428525 265839),0,0,0,0,,,,,,,,,,,,,,,0
10,BN112DH,Worthing Hospital,WO,Worthing Hospital,E01031789,NHS Sussex ICB - 70F,E38000248,SICBL,England,NHS Sussex Integrated Care Board,E54000053,Sussex,1,0,0,nearest,0,,,,,,,,,,,,,,,,,,,,,0,0,0,nearest,0,,,,,,,,,,,,,,,,,,,,,,,,,,,0,0,515323.0,103187.0,50.816758,-0.36432126,POINT (515323 103187),1,0,0,0,,,,,,,,,,,,,,,0
58,L355DR,"Whiston Hospital, Prescot",WP,Whiston Hospital HASU,E01006499,NHS Cheshire and Merseyside ICB - 01J,E38000091,SICBL,England,NHS Cheshire and Merseyside Integrated Care Board,E54000008,Cheshire and Merseyside,1,0,0,nearest,0,,,,,,,,,,,,,,,,,,,,,0,0,0,nearest,0,,,,,,,,,,,,,,,,,,,,,,,,,,,0,0,347861.0,391845.0,53.420813,-2.7860133,POINT (347861 391845),1,0,0,0,,,,,,,,,,,,,,,0
137,WR51DD,"Worcestershire Royal Hospital, Worcester",WR,Worcestershire Royal Hospital,E01032309,NHS Herefordshire and Worcestershire ICB - 18C,E38000236,SICBL,England,NHS Herefordshire and Worcestershire Integrated Care Board,E54000019,West Midlands,1,0,0,nearest,0,,,,,,,,,,,,,,,,,,,,,0,0,0,nearest,0,,,,,,,,,,,,,,,,,,,,,,,,,,,1,0,387714.0,254789.0,52.191202,-2.1811435,POINT (387714 254789),1,0,0,0,,,,,,,,,,,,,,,1
54,IP332QZ,"West Suffolk Hospital, Bury St Edmunds",WS,West Suffolk Hospital,E01030142,NHS Suffolk and North East Essex ICB - 07K,E38000204,SICBL,England,NHS Suffolk and North East Essex Integrated Care Board,E54000023,East of England (North),1,0,0,nearest,0,,,,,,,,,,,,,,,,,,,,,0,0,0,nearest,0,,,,,,,,,,,,,,,,,,,,,,,,,,,0,0,585110.0,262732.0,52.231662,0.70917557,POINT (585110 262732),1,0,0,0,,,,,,,,,,,,,,,0
135,WD180HB,Watford General Hospital,WT,Watford General Hospital,E01023901,NHS Hertfordshire and West Essex ICB - 06N,E38000079,SICBL,England,NHS Hertfordshire and West Essex Integrated Care Board,E54000025,East of England (South),1,0,0,nearest,0,,,,,,,,,,,,,,,,,,,,,0,0,0,nearest,0,,,,,,,,,,,,,,,,,,,,,,,,,,,0,0,510485.0,195678.0,51.649051,-0.40447202,POINT (510485 195678),1,0,0,0,,,,,,,,,,,,,,,0
108,SA312AF,West Wales General (Carmarthen),WW,West Wales General,W01000640,Hywel Dda University Health Board,W11000025,LHB,Wales,,,,1,0,0,nearest,0,,,,,,,,,,,,,,,,,,,,,0,0,0,nearest,0,,,,,,,,,,,,,,,,,,,,,,,,,,,0,0,242792.0,221240.0,51.867524,-4.2847226,POINT (242792 221240),1,0,0,0,,,,,,,,,,,,,,,0
114,SL24HL,"Wexham Park Hospital, Slough",WX,Wexham Park Hospital,E01016519,NHS Frimley ICB - D4U1Y,E38000252,SICBL,England,NHS Frimley Integrated Care Board,E54000034,Frimley ICS,0,0,0,nearest,0,,,,,,,,,,,,,,,,,,,,,0,0,0,nearest,0,,,,,,,,,,,,,,,,,,,,,,,,,,,0,0,498930.0,182543.0,51.533136,-0.57512489,POINT (498930 182543),0,0,0,0,,,,,,,,,,,,,,,0
50,HP112TT,"Wycombe General Hospital, High Wycombe",WY,Wycombe General Hospital,E01017837,"NHS Buckinghamshire, Oxfordshire and Berkshire West ICB - 14Y",E38000223,SICBL,England,"NHS Buckinghamshire, Oxfordshire and Berkshire West Integrated Care Board",E54000044,Thames Valley,1,0,0,nearest,0,,,,,,,,,,,,,,,,,,,,,0,0,0,nearest,0,,,,,,,,,,,,,,,,,,,,,,,,,,,0,0,486387.0,192671.0,51.626235,-0.75341914,POINT (486387 192671),1,0,0,0,,,,,,,,,,,,,,,0
4,BA214AT,Yeovil District Hospital,YE,Yeovil District Hospital,E01029231,NHS Somerset ICB - 11X,E38000150,SICBL,England,NHS Somerset Integrated Care Board,E54000038,"Gloucester, BSW, BNSSG and Somerset",1,0,0,nearest,1,30.0,0.0,60.0,0.0,80.0,0.0,104.22429149797571,9.19992597443808,134.61151315789473,8.947254626954704,238.91574074074077,8.532370051662761,298.9157407407408,8.532370051662769,-0.4885741026227563,0.055053195008312,0.0933345390661404,0.0061529599314935,0.56852298174627,0.1577608646795995,0,0,0,nearest,0,,,,,,,,,,,,,,,,,,,,,0.0933345390661404,0.0061529599314935,-0.4885741026227563,0.055053195008312,0.56852298174627,0.1577608646795995,1,0,355562.0,116398.0,50.945297,-2.6339071,POINT (355562 116398),1,0,0,1,30.0,0.0,60.0,0.0,80.0,0.0,104.22429149797571,9.19992597443808,134.61151315789473,8.947254626954704,238.91574074074077,8.532370051662761,298.9157407407408,8.532370051662769,1
140,YO318HE,York Hospital,YK,York Hospital,E01013343,NHS Humber and North Yorkshire ICB - 03Q,E38000188,SICBL,England,NHS Humber and North Yorkshire Integrated Care Board,E54000051,Humber Coast and Vale,1,0,0,nearest,0,,,,,,,,,,,,,,,,,,,,,0,0,0,nearest,0,,,,,,,,,,,,,,,,,,,,,,,,,,,0,0,460208.0,453108.0,53.970547,-1.0836401,POINT (460208 453108),1,0,0,0,,,,,,,,,,,,,,,0
66,LL572PW,Ysbyty Gwynedd (Bangor),YS,Ysbyty Gwynedd,W01000102,Betsi Cadwaladr University Health Board,W11000023,LHB,Wales,,,,1,0,0,nearest,0,,,,,,,,,,,,,,,,,,,,,0,0,0,nearest,0,,,,,,,,,,,,,,,,,,,,,,,,,,,0,0,255857.0,370173.0,53.20902,-4.1598251,POINT (255857 370173),1,0,0,0,,,,,,,,,,,,,,,0
